{
  "funeral_homes": [
    {
      "id": "fh_001",
      "name": "무지개언덕 반려동물 장례식장",
      "location": "경기 광주",
      "address": "경기도 광주시 오포읍 문형리 123-45",
      "tel": "1577-0000",
      "open_hours": "24시간 연중무휴",
      "price_range": "기본 20만원 ~ 150만원",
      "services": [
        "픽업 서비스",
        "개별 화장",
        "참관 가능",
        "메모리얼 스톤 제작",
        "납골당 운영"
      ],
      "description": "숲속에 위치하여 조용하고 프라이빗한 추모가 가능한 프리미엄 장례식장입니다. 단독 추모실을 제공하며, 장례 지도사가 1:1로 배정되어 전 과정을 케어해줍니다.",
      "tags": ["#프리미엄", "#숲속", "#조용한", "#단독추모실"],
      "rating": 4.8,
      "review_summary": "시설이 매우 깨끗하고 장례 지도사분이 정말 친절하게 아이를 다뤄주셔서 위로가 되었습니다."
    },
    {
      "id": "fh_002",
      "name": "별빛소풍 24시",
      "location": "경기 김포",
      "address": "경기도 김포시 통진읍 456-78",
      "tel": "031-987-6543",
      "open_hours": "24시간 (야간 할증 없음)",
      "price_range": "기본 15만원 ~ 80만원",
      "services": [
        "긴급 화장",
        "왕복 픽업",
        "장례 용품 제작",
        "루세떼(스톤) 제작"
      ],
      "description": "수도권 서부에서 접근성이 좋으며, 늦은 새벽에도 추가 비용 없이 장례 진행이 가능합니다. 합리적인 비용으로 정직하게 운영되는 것을 원칙으로 합니다.",
      "tags": ["#가성비", "#24시간", "#야간가능", "#접근성좋음"],
      "rating": 4.6,
      "review_summary": "새벽에 급하게 연락드렸는데도 픽업 와주셔서 너무 감사했습니다. 바가지 요금 없이 투명합니다."
    },
    {
      "id": "fh_003",
      "name": "아이헤븐 메모리얼",
      "location": "경기 용인",
      "address": "경기도 용인시 처인구 789-12",
      "tel": "031-333-4444",
      "open_hours": "09:00 ~ 22:00",
      "price_range": "기본 25만원 ~ 200만원",
      "services": [
        "종교별 장례(기독교/불교)",
        "VIP 추모실",
        "수목장 연계",
        "3D 프린팅 피규어"
      ],
      "description": "종교별 예식이 준비되어 있는 곳으로, 넓은 야외 정원이 있어 아이를 보내기 전 마지막 산책이 가능합니다. 수목장과 연계되어 자연으로 돌려보내고 싶은 분들에게 적합합니다.",
      "tags": ["#종교장례", "#수목장", "#야외정원", "#시설좋음"],
      "rating": 4.9,
      "review_summary": "마지막 가는 길에 기도해주셔서 마음이 편했습니다. 시설이 호텔처럼 깔끔합니다."
    },
    {
      "id": "fh_004",
      "name": "굿바이엔젤 남양주점",
      "location": "경기 남양주",
      "address": "경기도 남양주시 화도읍 321-65",
      "tel": "1588-9999",
      "open_hours": "24시간 연중무휴",
      "price_range": "기본 20만원 ~ 100만원",
      "services": [
        "염습 과정 공개",
        "비대면 장례 대행",
        "영상 제공",
        "기능성 유골함"
      ],
      "description": "부득이하게 직접 방문하지 못하는 보호자를 위해, 장례 전 과정을 실시간 영상으로 공유해주는 '비대면 안심 장례' 서비스가 특화되어 있습니다.",
      "tags": ["#비대면장례", "#영상제공", "#믿을수있는", "#투명한공개"],
      "rating": 4.7,
      "review_summary": "출장 때문에 못 갔는데 영상으로 꼼꼼히 보여주셔서 안심했습니다. 아이를 정성껏 닦아주시는 모습에 감동했습니다."
    },
    {
      "id": "fh_005",
      "name": "더 포레스트(The Forest)",
      "location": "충남 천안",
      "address": "충청남도 천안시 동남구 567-89",
      "tel": "041-555-6666",
      "open_hours": "08:00 ~ 20:00",
      "price_range": "기본 18만원 ~ 90만원",
      "services": [
        "친환경 화장",
        "산골 대행",
        "무료 픽업(천안/아산)",
        "심리 상담 연계"
      ],
      "description": "중부권 최대 규모의 시설로, 펫로스 증후군 상담센터와 연계되어 있어 장례 후 보호자의 심리 케어까지 안내받을 수 있습니다.",
      "tags": ["#중부권", "#심리상담연계", "#친환경", "#넓은주차장"],
      "rating": 4.5,
      "review_summary": "주차장이 넓어서 가족들이 다 같이 가기 좋았습니다. 상담센터 쿠폰을 주셔서 도움이 되었습니다."
    }
  ]
}